{
"type": "FeatureCollection",
"name": "points",
"crs": { "type": "name", "properties": { "name": "urn:ogc:def:crs:OGC:1.3:CRS84" } },
"features": [
{ "type": "Feature", "properties": { "name": "2014\/bus-station", "title": "Транспортный хаб", "contentUrl": "/static/projects\/2014-bus-station\/index.html" }, "geometry": { "type": "Point", "coordinates": [ 31.032458728285793, 59.943794448544317 ] } },
{ "type": "Feature", "properties": { "name": "2016\/gateway", "title": "Шлюзы", "contentUrl": "/static/projects\/2016-gateway\/index.html" }, "geometry": { "type": "Point", "coordinates": [ 31.032462159322819, 59.944915192876579 ] } },
{ "type": "Feature", "properties": { "name": "2014\/bridge", "title": "Мост", "contentUrl": "/static/projects\/2014-bridge\/index.html" }, "geometry": { "type": "Point", "coordinates": [ 31.038550190207026, 59.943723352231942 ] } },
{ "type": "Feature", "properties": { "name": "2015\/shlisselburg", "title": "Скульптурная композция", "contentUrl": "/static/projects\/2015-shlisselburg\/index.html" }, "geometry": { "type": "Point", "coordinates": [ 31.023098184498814, 59.937029478292949 ] } },
{ "type": "Feature", "properties": { "name": "2006\/florence", "title": "Спортивно-досуговый центр", "contentUrl": "/static/projects\/2006-florence\/index.html" }, "geometry": { "type": "Point", "coordinates": [ 31.024684097987535, 59.939065961048698 ] } },
{ "type": "Feature", "properties": { "name": "2016\/park", "title": "Благоустройство парка Гагарина", "contentUrl": "/static/projects\/2016-park\/index.html" }, "geometry": { "type": "Point", "coordinates": [ 31.032754797981351, 59.942286727087946 ] } },
{ "type": "Feature", "properties": { "name": "2010\/centre", "title": "Реконструкция центальной части города", "contentUrl": "/static/projects\/2010-centre\/index.html" }, "geometry": { "type": "Point", "coordinates": [ 31.029506583318231, 59.941050618548374 ] } },
{ "type": "Feature", "properties": { "name": "2017\/pier", "title": "Концепция реновации набережной", "contentUrl": "/static/projects\/2017-pier\/index.html" }, "geometry": { "type": "Point", "coordinates": [ 31.030518296554401, 59.945991594626747 ] } },
{ "type": "Feature", "properties": { "name": "2017\/red-square", "title": "Концепция ренновации площади", "contentUrl": "/static/projects\/2017-red-square\/index.html" }, "geometry": { "type": "Point", "coordinates": [ 31.035283323594548, 59.944860211719643 ] } },
{ "type": "Feature", "properties": { "name": "2017\/stairs", "title": "Концепт спуска-пандуса", "contentUrl": "/static/projects\/2017-stairs\/index.html" }, "geometry": { "type": "Point", "coordinates": [ 31.0351281363412, 59.943866114257823 ] } },
{ "type": "Feature", "properties": { "name": "2017\/public-space", "title": "Концепция развития общественных пространств", "contentUrl": "/static/projects\/2017-public-space\/index.html" }, "geometry": { "type": "Point", "coordinates": [ 31.036843030093475, 59.943667506993961 ] } },
{ "type": "Feature", "properties": { "name": "2017\/shlisselshved", "title": "Шлиссельшвед", "contentUrl": "/static/projects\/2017-shlisselshved\/index.html" }, "geometry": { "type": "Point", "coordinates": [ 31.033534061420909, 59.944874352202028 ] } },
{ "type": "Feature", "properties": { "name": "2017\/bridge", "title": "Концепция моста — лодочной станции", "contentUrl": "/static/projects\/2017-bridge\/index.html" }, "geometry": { "type": "Point", "coordinates": [ 31.034874509788185, 59.939597843645423 ] } },
{ "type": "Feature", "properties": { "name": "2018\/centre", "title": "Проект благоустройства пешеходной зоны", "contentUrl": "/static/projects\/2018-centre\/index.html" }, "geometry": { "type": "Point", "coordinates": [ 31.034720190425588, 59.944923709139573 ] } },
{ "type": "Feature", "properties": { "name": "2018\/waterfront", "title": "Вперед на воду", "contentUrl": "/static/projects\/2018-waterfront\/index.html" }, "geometry": { "type": "Point", "coordinates": [ 31.030074262477111, 59.94474676337974 ] } },
{ "type": "Feature", "properties": { "name": "2018\/park", "title": "Проект благоустройства пешеходной зоны", "contentUrl": "/static/projects\/2018-park\/index.html" }, "geometry": { "type": "Point", "coordinates": [ 31.033465966530756, 59.943496319759326 ] } },
{ "type": "Feature", "properties": { "name": "2018\/bridges", "title": "Проект мостов и аллей", "contentUrl": "/static/projects\/2018-bridges\/index.html" }, "geometry": { "type": "Point", "coordinates": [ 31.038857015992814, 59.940552715383994 ] } }
]
}
